{"categories": [{"id": "sight", "title": "Достопримечательности"}, {"id": "food", "title": "Еда"}, {"id": "walk", "title": "Прогулки"}, {"id": "photo", "title": "Фото-споты"}], "places": [{"id": 1, "name": "Монумент Дружбы", "categoryId": "sight", "lat": 54.7181, "lng": 55.9694, "description": "Символ дружбы народов, панорамный вид на Белую"}, {"id": 2, "name": "Салават Юлаев (памятник)", "categoryId": "sight", "lat": 54.7229, "lng": 55.9344, "description": "Главный символ Уфы на высоком берегу"}, {"id": 3, "name": "Набережная реки Белой", "categoryId": "walk", "lat": 54.7212, "lng": 55.9398, "description": "Лучшее место для прогулок у воды"}, {"id": 4, "name": "Гостиный двор Уфа", "categoryId": "sight", "lat": 54.7383, "lng": 55.9578, "description": "Исторический торговый центр города"}, {"id": 5, "name": "Парк Якутова", "categoryId": "walk", "lat": 54.7389, "lng": 55.9572, "description": "Один из старейших парков Уфы"}, {"id": 6, "name": "Лимонарий Уфы", "categoryId": "photo", "lat": 54.7412, "lng": 55.9823, "description": "Тропические растения и необычные фото"}, {"id": 7, "name": "Старая Уфа (исторический центр)", "categoryId": "walk", "lat": 54.7371, "lng": 55.9586, "description": "Уютные улицы с исторической архитектурой"}, {"id": 8, "name": "Уфимский амфитеатр", "categoryId": "sight", "lat": 54.7235, "lng": 55.9472, "description": "Современное общественное пространство"}, {"id": 9, "name": "Парк Гафури", "categoryId": "walk", "lat": 54.7502, "lng": 55.9861, "description": "Большой парк для отдыха и прогулок"}, {"id": 10, "name": "ВДНХ-Экспо Уфа", "categoryId": "sight", "lat": 54.7456, "lng": 55.9798, "description": "Выставочный центр города"}, {"id": 11, "name": "Кафе 'Дом Башкирской кухни'", "categoryId": "food", "lat": 54.7379, "lng": 55.9602, "description": "Национальная башкирская кухня"}, {"id": 12, "name": "Ресторан 'Азык-Тулек'", "categoryId": "food", "lat": 54.7398, "lng": 55.9621, "description": "Современная интерпретация национальной еды"}, {"id": 13, "name": "KFC Центр Уфы", "categoryId": "food", "lat": 54.7362, "lng": 55.9591, "description": "Фастфуд в центре города"}, {"id": 14, "name": "McDonald's Уфа Центр", "categoryId": "food", "lat": 54.7375, "lng": 55.961, "description": "Популярный фастфуд"}, {"id": 15, "name": "Кофейня Traveler's Coffee", "categoryId": "food", "lat": 54.7382, "lng": 55.9589, "description": "Кофе и спокойная атмосфера"}, {"id": 16, "name": "Арт-объект 'Сердце Уфы'", "categoryId": "photo", "lat": 54.7221, "lng": 55.9412, "description": "Популярное место для фото"}, {"id": 17, "name": "Смотровая площадка на набережной", "categoryId": "photo", "lat": 54.7218, "lng": 55.9387, "description": "Вид на реку и город"}, {"id": 18, "name": "Улица Ленина", "categoryId": "walk", "lat": 54.737, "lng": 55.96, "description": "Главная прогулочная улица"}, {"id": 19, "name": "Арт-квартал Уфа", "categoryId": "photo", "lat": 54.7365, "lng": 55.9565, "description": "Граффити и уличное искусство"}, {"id": 20, "name": "Парк Победы", "categoryId": "walk", "lat": 54.7623, "lng": 56.0211, "description": "Мемориальный парк с видом на реку"}, {"id": 21, "name": "Национальный музей Башкортостана", "categoryId": "sight", "lat": 54.7376, "lng": 55.9595, "description": "История и культура региона"}, {"id": 22, "name": "Башкирский театр драмы", "categoryId": "sight", "lat": 54.7368, "lng": 55.9607, "description": "Классический театр города"}, {"id": 23, "name": "Конгресс-холл Торатау", "categoryId": "sight", "lat": 54.7225, "lng": 55.938, "description": "Современное здание на набережной"}, {"id": 24, "name": "Мечеть Ляля-Тюльпан", "categoryId": "sight", "lat": 54.7602, "lng": 55.9921, "description": "Одна из самых красивых мечетей России"}, {"id": 25, "name": "Свято-Сергиевский собор", "categoryId": "sight", "lat": 54.7392, "lng": 55.9511, "description": "Исторический православный храм"}, {"id": 26, "name": "Сквер им. Аксакова", "categoryId": "walk", "lat": 54.7378, "lng": 55.9599, "description": "Уютный городской сквер"}, {"id": 27, "name": "Парк им. И. Якутова (озеро)", "categoryId": "photo", "lat": 54.7395, "lng": 55.9579, "description": "Озеро с лодками и атмосферой отдыха"}, {"id": 28, "name": "ТРЦ Планета", "categoryId": "food", "lat": 54.7582, "lng": 56.0102, "description": "Крупный торговый центр"}, {"id": 29, "name": "ТРЦ Центральный рынок", "categoryId": "food", "lat": 54.736, "lng": 55.9604, "description": "Еда и локальные продукты"}, {"id": 30, "name": "Смотровая площадка Торатау", "categoryId": "photo", "lat": 54.723, "lng": 55.9372, "description": "Лучший панорамный вид на город"}], "routes": [{"id": 1, "title": "Уфа за 2 часа", "description": "Быстрый маршрут по центру города", "placeIds": [1, 2, 3, 8], "estimatedTimeMinutes": 120, "difficulty": "easy"}, {"id": 2, "title": "1 день в Уфе", "description": "Полноценный маршрут на весь день", "placeIds": [21, 4, 26, 18, 11], "estimatedTimeMinutes": 480, "difficulty": "medium"}, {"id": 3, "title": "Вечерний маршрут", "description": "Прогулка по вечернему городу", "placeIds": [3, 17, 16, 23], "estimatedTimeMinutes": 90, "difficulty": "easy"}]}